[
  {
    "id": "gc-1k9xm3j",
    "name": "남춘천컨트리클럽",
    "address": "강원 강원도 춘천시 신동면 오봉길 156",
    "region": "강원",
    "lat": 37.7868086,
    "lon": 127.7034167,
    "holes": 18,
    "type": "대중제"
  },
  {
    "id": "gc-1he2yd3",
    "name": "더플레이어스 골프클럽",
    "address": "강원 강원도 춘천시 동산면 새술막길 438",
    "region": "강원",
    "lat": 37.763873,
    "lon": 127.7317367,
    "holes": 27,
    "type": "대중제"
  },
  {
    "id": "gc-79st3z",
    "name": "동서울레스피아",
    "address": "강원 강원도 원주시 지정면 신평석화로 236",
    "region": "강원",
    "lat": 37.3887159,
    "lon": 127.8840712,
    "holes": 9,
    "type": "대중제"
  },
  {
    "id": "gc-14gfjtz",
    "name": "라데나골프클럽",
    "address": "강원 강원도 춘천시 신동면 칠전동길 72",
    "region": "강원",
    "lat": 37.841724,
    "lon": 127.7162054,
    "holes": 27,
    "type": "회원제"
  },
  {
    "id": "gc-n0x2z3",
    "name": "로드힐스골프클럽",
    "address": "강원 강원도 춘천시 동산면 종자리로 148-16",
    "region": "강원",
    "lat": 37.7486373,
    "lon": 127.7388859,
    "holes": 27,
    "type": "대중제"
  },
  {
    "id": "gc-tdjiic",
    "name": "블랙밸리컨트리클럽",
    "address": "강원 강원도 삼척시 도계읍 도상로 307-84",
    "region": "강원",
    "lat": 37.226245,
    "lon": 129.0544336,
    "holes": 18,
    "type": "대중제"
  },
  {
    "id": "gc-tqm20j",
    "name": "비콘힐스골프클럽",
    "address": "강원 강원도 홍천군 홍천읍 높은터로 533",
    "region": "강원",
    "lat": 37.6385304,
    "lon": 127.8572605,
    "holes": 18,
    "type": "대중제"
  },
  {
    "id": "gc-1o74ook",
    "name": "샤인데일골프&리조트",
    "address": "강원 강원도 홍천군 서면 한서로 247-156",
    "region": "강원",
    "lat": 37.6636445,
    "lon": 127.5709942,
    "holes": 27,
    "type": "대중제"
  },
  {
    "id": "gc-1dpexz0",
    "name": "설악썬밸리컨트리클럽",
    "address": "강원 강원도 고성군 죽왕면 순포로 188",
    "region": "강원",
    "lat": 38.3139237,
    "lon": 128.519795,
    "holes": 27,
    "type": "대중제"
  },
  {
    "id": "gc-zwhmlq",
    "name": "설해원",
    "address": "강원 강원도 양양군 손양면 공항로 230",
    "region": "강원",
    "lat": 38.0614209,
    "lon": 128.6718471,
    "holes": 27,
    "type": "대중제"
  },
  {
    "id": "gc-bu6n42",
    "name": "설해원 더 레전드 코스",
    "address": "강원 강원도 양양군 손양면 공항로 230",
    "region": "강원",
    "lat": 38.0614209,
    "lon": 128.6718471,
    "holes": 18,
    "type": "대중제"
  },
  {
    "id": "gc-cc0ls2",
    "name": "센추리21컨트리클럽",
    "address": "강원 강원도 원주시 문막읍 궁말길 193",
    "region": "강원",
    "lat": 37.2770136,
    "lon": 127.8364718,
    "holes": 18,
    "type": "회원제"
  },
  {
    "id": "gc-1fuzvfn",
    "name": "센추리21컨트리클럽Ⅱ",
    "address": "강원 강원도 원주시 문막읍 궁말길 193",
    "region": "강원",
    "lat": 37.2770136,
    "lon": 127.8364718,
    "holes": 18,
    "type": "대중제"
  },
  {
    "id": "gc-3vloqq",
    "name": "센추리21퍼블릭",
    "address": "강원 강원도 원주시 문막읍 궁말길 193",
    "region": "강원",
    "lat": 37.2770136,
    "lon": 127.8364718,
    "holes": 9,
    "type": "대중제"
  },
  {
    "id": "gc-1vbgmr",
    "name": "소노펠리체 컨트리클럽 델피노",
    "address": "강원 강원도 고성군 토성면 미시령옛길 1153",
    "region": "강원",
    "lat": 38.2075436,
    "lon": 128.4952762,
    "holes": 18,
    "type": "대중제"
  },
  {
    "id": "gc-q1jber",
    "name": "소노펠리체 컨트리클럽 비발디파크 마운틴",
    "address": "강원 강원도 홍천군 서면 한치골길 262",
    "region": "강원",
    "lat": 37.6892617,
    "lon": 127.6986849,
    "holes": 9,
    "type": "대중제"
  },
  {
    "id": "gc-q3p07r",
    "name": "소노펠리체 컨트리클럽 비발디파크 웨스트",
    "address": "강원 강원도 홍천군 서면 한치골길 200",
    "region": "강원",
    "lat": 37.6575163,
    "lon": 127.6901731,
    "holes": 18,
    "type": "대중제"
  },
  {
    "id": "gc-1h2x6db",
    "name": "스프링베일리조트",
    "address": "강원 강원도 춘천시 동면 금베이길 93-27",
    "region": "강원",
    "lat": 37.8759696,
    "lon": 127.7849943,
    "holes": 9,
    "type": "대중제"
  },
  {
    "id": "gc-1mdsnky",
    "name": "알펜시아 700골프클럽",
    "address": "강원 강원도 평창군 대관령면 솔봉로 325",
    "region": "강원",
    "lat": 37.6699541,
    "lon": 128.6660244,
    "holes": 18,
    "type": "대중제"
  },
  {
    "id": "gc-yrecuj",
    "name": "알펜시아컨트리클럽",
    "address": "강원 강원도 평창군 대관령면 솔봉로 325",
    "region": "강원",
    "lat": 37.6699541,
    "lon": 128.6660244,
    "holes": 27,
    "type": "회원제"
  },
  {
    "id": "gc-1gvre0c",
    "name": "에콜리안정선골프장",
    "address": "강원 강원도 정선군 신동읍 새골길 112-49",
    "region": "강원",
    "lat": 37.2208821,
    "lon": 128.6741186,
    "holes": 9,
    "type": "대중제"
  },
  {
    "id": "gc-1kqoq7l",
    "name": "엘리시안 강촌대중골프장",
    "address": "강원 강원도 춘천시 남산면 북한강변길 688",
    "region": "강원",
    "lat": 37.8145026,
    "lon": 127.6332485,
    "holes": 10,
    "type": "대중제"
  },
  {
    "id": "gc-1kbkcq4",
    "name": "엘리시안 강촌컨트리클럽",
    "address": "강원 강원도 춘천시 남산면 북한강변길 688",
    "region": "강원",
    "lat": 37.8145026,
    "lon": 127.6332485,
    "holes": 27,
    "type": "회원제"
  },
  {
    "id": "gc-9jwunh",
    "name": "영랑호컨트리클럽",
    "address": "강원 강원도 속초시 영랑호반길 170",
    "region": "강원",
    "lat": 38.2135503,
    "lon": 128.5784937,
    "holes": 9,
    "type": "대중제"
  },
  {
    "id": "gc-ust8c3",
    "name": "오너스골프클럽",
    "address": "강원 강원도 춘천시 남산면 동촌로 667",
    "region": "강원",
    "lat": 37.7460886,
    "lon": 127.693129,
    "holes": 18,
    "type": "대중제"
  },
  {
    "id": "gc-sa8sl2",
    "name": "오투리조트 골프",
    "address": "강원 강원도 태백시 서학로 861",
    "region": "강원",
    "lat": 37.1484677,
    "lon": 128.9468562,
    "holes": 9,
    "type": "대중제"
  },
  {
    "id": "gc-95vcji",
    "name": "오투리조트 C.C",
    "address": "강원 강원도 태백시 서학로 861",
    "region": "강원",
    "lat": 37.1484677,
    "lon": 128.9468562,
    "holes": 18,
    "type": "대중제"
  },
  {
    "id": "gc-cu5zd5",
    "name": "용평리조트골프클럽",
    "address": "강원 강원도 평창군 대관령면 올림픽로 715",
    "region": "강원",
    "lat": 37.6646943,
    "lon": 128.7024819,
    "holes": 18,
    "type": "회원제"
  },
  {
    "id": "gc-q33jam",
    "name": "용평리조트대중골프장",
    "address": "강원 강원도 평창군 대관령면 올림픽로 715",
    "region": "강원",
    "lat": 37.6646943,
    "lon": 128.7024819,
    "holes": 9,
    "type": "대중제"
  },
  {
    "id": "gc-ekf0m9",
    "name": "용평버치힐골프클럽",
    "address": "강원 강원도 평창군 대관령면 올림픽로 715",
    "region": "강원",
    "lat": 37.6646943,
    "lon": 128.7024819,
    "holes": 18,
    "type": "회원제"
  },
  {
    "id": "gc-m0bxi3",
    "name": "웰리힐리컨트리클럽",
    "address": "강원 강원도 횡성군 둔내면 고원로 451",
    "region": "강원",
    "lat": 37.5075786,
    "lon": 128.2116935,
    "holes": 36,
    "type": "회원제"
  },
  {
    "id": "gc-vh2owc",
    "name": "웰리힐리퍼블릭골프장",
    "address": "강원 강원도 횡성군 둔내면 고원로 451",
    "region": "강원",
    "lat": 37.5075786,
    "lon": 128.2116935,
    "holes": 10,
    "type": "대중제"
  },
  {
    "id": "gc-1qirpa7",
    "name": "인터불고원주골프클럽",
    "address": "강원 강원도 원주시 동부순환로 200",
    "region": "강원",
    "lat": 37.3324784,
    "lon": 127.9736488,
    "holes": 9,
    "type": "대중제"
  },
  {
    "id": "gc-1we1c4v",
    "name": "제이드팰리스 골프클럽",
    "address": "강원 강원도 춘천시 남산면 경춘로 212-30",
    "region": "강원",
    "lat": 37.8453013,
    "lon": 127.5509751,
    "holes": 18,
    "type": "회원제"
  },
  {
    "id": "gc-1vnrwp7",
    "name": "파가니카컨트리클럽",
    "address": "강원 강원도 춘천시 남면 소주고개로 145-10",
    "region": "강원",
    "lat": 37.7543674,
    "lon": 127.6216676,
    "holes": 18,
    "type": "대중제"
  },
  {
    "id": "gc-15fghff",
    "name": "파인리즈컨트리클럽",
    "address": "강원 강원도 고성군 토성면 잼버리동로 267",
    "region": "강원",
    "lat": 38.2404125,
    "lon": 128.5704915,
    "holes": 27,
    "type": "대중제"
  },
  {
    "id": "gc-19ivucr",
    "name": "파인밸리컨트리클럽",
    "address": "강원 강원도 삼척시 근덕면 미근로 1629",
    "region": "강원",
    "lat": 37.3546657,
    "lon": 129.1898535,
    "holes": 18,
    "type": "대중제"
  },
  {
    "id": "gc-isqb8f",
    "name": "하이원컨트리클럽",
    "address": "강원 강원도 정선군 고한읍 하이원길 265",
    "region": "강원",
    "lat": 37.2106967,
    "lon": 128.8328795,
    "holes": 18,
    "type": "대중제"
  },
  {
    "id": "gc-wehqxk",
    "name": "한탄강컨트리클럽",
    "address": "강원 강원도 철원군 갈말읍 순담길 59",
    "region": "강원",
    "lat": 38.1776827,
    "lon": 127.2965715,
    "holes": 18,
    "type": "대중제"
  },
  {
    "id": "gc-1tic5qg",
    "name": "휘닉스 컨트리클럽",
    "address": "강원 강원도 평창군 봉평면 태기로 227-84",
    "region": "강원",
    "lat": 37.5639735,
    "lon": 128.3545666,
    "holes": 18,
    "type": "회원제"
  },
  {
    "id": "gc-1gxuj1",
    "name": "휘닉스대중골프장",
    "address": "강원 강원도 평창군 봉평면 태기로 227-84",
    "region": "강원",
    "lat": 37.5639735,
    "lon": 128.3545666,
    "holes": 6,
    "type": "대중제"
  },
  {
    "id": "gc-1t8qgo5",
    "name": "휘슬링락컨트리클럽",
    "address": "강원 강원도 춘천시 남산면 동촌로 501",
    "region": "강원",
    "lat": 37.7460886,
    "lon": 127.693129,
    "holes": 27,
    "type": "회원제"
  },
  {
    "id": "gc-74427f",
    "name": "힐드로사이컨트리클럽",
    "address": "강원 강원도 홍천군 남면 한서로 2840",
    "region": "강원",
    "lat": 37.5989757,
    "lon": 127.7386252,
    "holes": 18,
    "type": "대중제"
  },
  {
    "id": "gc-1dubefu",
    "name": "Oak Hills컨트리클럽",
    "address": "강원 강원도 원주시 지정면 오크밸리2길 58",
    "region": "강원",
    "lat": 37.4103861,
    "lon": 127.8194802,
    "holes": 18,
    "type": "회원제"
  },
  {
    "id": "gc-1kp9we8",
    "name": "1.2.3",
    "address": "경기 고양시 덕양구 통일로 43-168",
    "region": "경기",
    "lat": 37.459785,
    "lon": 127.1298238,
    "holes": 6,
    "type": "대중제"
  },
  {
    "id": "gc-n8w99g",
    "name": "88CC",
    "address": "경기 용인시 기흥구 석성로 521번길 169",
    "region": "경기",
    "lat": 37.459785,
    "lon": 127.1298238,
    "holes": 36,
    "type": "회원제"
  },
  {
    "id": "gc-153uf4s",
    "name": "고양컨트리클럽",
    "address": "경기 고양시 덕양구 흥도로 304-23",
    "region": "경기",
    "lat": 37.6135575,
    "lon": 126.8674482,
    "holes": 9,
    "type": "대중제"
  },
  {
    "id": "gc-vzitgw",
    "name": "곤지암GC",
    "address": "경기 광주시 도척면 도척윗로 280",
    "region": "경기",
    "lat": 37.324944,
    "lon": 127.3114604,
    "holes": 18,
    "type": "회원제"
  },
  {
    "id": "gc-1ecr22g",
    "name": "골드CC",
    "address": "경기 용인시 기흥구 기흥단지로 398",
    "region": "경기",
    "lat": 37.2179504,
    "lon": 127.1383407,
    "holes": 36,
    "type": "회원제"
  },
  {
    "id": "gc-od6hs7",
    "name": "골프존카운티 안성H",
    "address": "경기 안성시 보개면 보삼로 302",
    "region": "경기",
    "lat": 37.0990223,
    "lon": 127.3379713,
    "holes": 18,
    "type": "대중제"
  },
  {
    "id": "gc-od6hsm",
    "name": "골프존카운티 안성W",
    "address": "경기 안성시 양성면 교동길 19-70",
    "region": "경기",
    "lat": 37.0673106,
    "lon": 127.1948469,
    "holes": 9,
    "type": "대중제"
  },
  {
    "id": "gc-xutna4",
    "name": "골프클럽Q",
    "address": "경기 안성시 죽산면 장계길 20-229",
    "region": "경기",
    "lat": 37.0469013,
    "lon": 127.3894979,
    "holes": 18,
    "type": "대중제"
  },
  {
    "id": "gc-4zrh1f",
    "name": "그린힐컨트리클럽",
    "address": "경기 광주시 곤지암읍 내선길 176",
    "region": "경기",
    "lat": 37.3629637,
    "lon": 127.4147647,
    "holes": 18,
    "type": "회원제"
  },
  {
    "id": "gc-1eyq4rg",
    "name": "남부CC",
    "address": "경기 용인시 기흥구 사은로 163",
    "region": "경기",
    "lat": 37.2523427,
    "lon": 127.1443231,
    "holes": 18,
    "type": "회원제"
  },
  {
    "id": "gc-71ljy7",
    "name": "남촌컨트리클럽",
    "address": "경기 광주시 곤지암읍 부항길 135-38",
    "region": "경기",
    "lat": 37.3526668,
    "lon": 127.4069943,
    "holes": 18,
    "type": "회원제"
  },
  {
    "id": "gc-kx6npi",
    "name": "노스팜",
    "address": "경기 파주시 광탄면 쇠장이길 227",
    "region": "경기",
    "lat": 37.7858735,
    "lon": 126.9104747,
    "holes": 18,
    "type": "대중제"
  },
  {
    "id": "gc-1k42exv",
    "name": "뉴코리아 컨트리클럽",
    "address": "경기 고양시 덕양구 신원2로 57",
    "region": "경기",
    "lat": 37.666069,
    "lon": 126.8805404,
    "holes": 18,
    "type": "회원제"
  },
  {
    "id": "gc-143ojbr",
    "name": "더스타휴 컨트리클럽",
    "address": "경기 양평군 양동면 양동로 756",
    "region": "경기",
    "lat": 37.4284605,
    "lon": 127.749918,
    "holes": 1,
    "type": "회원제"
  },
  {
    "id": "gc-1h71wdr",
    "name": "더크로스비골프클럽",
    "address": "경기 이천시 호법면 중부대로798번길 177",
    "region": "경기",
    "lat": 37.2300064,
    "lon": 127.4083183,
    "holes": 27,
    "type": "대중제"
  },
  {
    "id": "gc-ccdmqz",
    "name": "라비돌대중",
    "address": "경기 화성시 정남면 세자로 286",
    "region": "경기",
    "lat": 37.1960833,
    "lon": 126.9812026,
    "holes": 9,
    "type": "대중제"
  },
  {
    "id": "gc-ptmbmg",
    "name": "레이크사이드CC",
    "address": "경기 용인시 처인구 모현읍 능원로 181",
    "region": "경기",
    "lat": 37.3213751,
    "lon": 127.1783872,
    "holes": 36,
    "type": "대중제"
  },
  {
    "id": "gc-o401v7",
    "name": "레이크우드 골프장",
    "address": "경기 양주시 만송로 244",
    "region": "경기",
    "lat": 37.7906717,
    "lon": 127.0926572,
    "holes": 9,
    "type": "대중제"
  },
  {
    "id": "gc-1fdbubr",
    "name": "로얄개발㈜ 레이크우드 골프장",
    "address": "경기 양주시 만송로 244",
    "region": "경기",
    "lat": 37.7906717,
    "lon": 127.0926572,
    "holes": 27,
    "type": "회원제"
  },
  {
    "id": "gc-7cxw3c",
    "name": "루나힐스 안성컨트리클럽",
    "address": "경기 안성시 양성면 약산길 67-6",
    "region": "경기",
    "lat": 37.1170036,
    "lon": 127.2607048,
    "holes": 18,
    "type": "대중제"
  },
  {
    "id": "gc-o9qkn2",
    "name": "리앤리C.C",
    "address": "경기 가평군 조종면 운악청계로 702-24",
    "region": "경기",
    "lat": 37.9019031,
    "lon": 127.345468,
    "holes": 27,
    "type": "대중제"
  },
  {
    "id": "gc-174ho10",
    "name": "마에스트로 CC",
    "address": "경기 안성시 양성면 안성맞춤대로 2134-36",
    "region": "경기",
    "lat": 37.1084723,
    "lon": 127.2396947,
    "holes": 18,
    "type": "대중제"
  },
  {
    "id": "gc-1oduyd8",
    "name": "몽베르컨트리클럽",
    "address": "경기 포천시 영북면 산정호수로 359-12",
    "region": "경기",
    "lat": 38.0741861,
    "lon": 127.3055613,
    "holes": 18,
    "type": "회원제"
  },
  {
    "id": "gc-1w0hblv",
    "name": "베어크리크골프클럽",
    "address": "경기 포천시 화현면 달인동로 35",
    "region": "경기",
    "lat": 37.8985688,
    "lon": 127.2860924,
    "holes": 36,
    "type": "대중제"
  },
  {
    "id": "gc-fwgdtz",
    "name": "블랙스톤리조트이천",
    "address": "경기 이천시 장호원읍 장여로 459-160",
    "region": "경기",
    "lat": 37.1615539,
    "lon": 127.6178781,
    "holes": 18,
    "type": "회원제"
  },
  {
    "id": "gc-14i0mg0",
    "name": "비에이비스타C.C.",
    "address": "경기 이천시 모가면 어농로 272",
    "region": "경기",
    "lat": 37.1845276,
    "lon": 127.4272078,
    "holes": 36,
    "type": "회원제"
  },
  {
    "id": "gc-12lv2bi",
    "name": "비전힐스C.C",
    "address": "경기 남양주시 화도읍 마치로 226-220",
    "region": "경기",
    "lat": 37.6414455,
    "lon": 127.2684931,
    "holes": 18,
    "type": "회원제"
  },
  {
    "id": "gc-1odphb1",
    "name": "사우스스프링스C.C.",
    "address": "경기 이천시 모가면 공원로 64",
    "region": "경기",
    "lat": 37.1752472,
    "lon": 127.4509689,
    "holes": 18,
    "type": "대중제"
  },
  {
    "id": "gc-kzrrr2",
    "name": "서서울",
    "address": "경기 파주시 광탄면 혜음로 324",
    "region": "경기",
    "lat": 37.7382446,
    "lon": 126.8792663,
    "holes": 18,
    "type": "회원제"
  },
  {
    "id": "gc-1hjd526",
    "name": "서원밸리",
    "address": "경기 파주시 광탄면 서원길 333",
    "region": "경기",
    "lat": 37.8037993,
    "lon": 126.8906841,
    "holes": 18,
    "type": "회원제"
  },
  {
    "id": "gc-1hmczex",
    "name": "송추cc",
    "address": "경기 양주시 광적면 쇠장이길 435",
    "region": "경기",
    "lat": 37.7967634,
    "lon": 126.9218969,
    "holes": 18,
    "type": "회원제"
  },
  {
    "id": "gc-1hns6zg",
    "name": "수원CC",
    "address": "경기 용인시 기흥구 중부대로 495",
    "region": "경기",
    "lat": 37.2813345,
    "lon": 127.1203271,
    "holes": 36,
    "type": "회원제"
  },
  {
    "id": "gc-1eguoru",
    "name": "스마트KU골프 파빌리온",
    "address": "경기 파주시 법원읍 보광로 1616",
    "region": "경기",
    "lat": 37.8305996,
    "lon": 126.8683591,
    "holes": 27,
    "type": "대중제"
  },
  {
    "id": "gc-5u2xbt",
    "name": "신안 퍼블릭 CC",
    "address": "경기 안성시 고삼면 개울말길 149",
    "region": "경기",
    "lat": 37.0872355,
    "lon": 127.2545748,
    "holes": 9,
    "type": "대중제"
  },
  {
    "id": "gc-tpoldf",
    "name": "신안컨트리클럽",
    "address": "경기 안성시 고삼면 개울말길 149",
    "region": "경기",
    "lat": 37.0872355,
    "lon": 127.2545748,
    "holes": 18,
    "type": "회원제"
  },
  {
    "id": "gc-1uqtnah",
    "name": "안성베네스트골프클럽 일반대중홀",
    "address": "경기 안성시 금광면 삼흥로 660",
    "region": "경기",
    "lat": 37.0181136,
    "lon": 127.3844697,
    "holes": 9,
    "type": "대중제"
  },
  {
    "id": "gc-19o1p4v",
    "name": "안성베네스트G.C",
    "address": "경기 안성시 금광면 삼흥로 660",
    "region": "경기",
    "lat": 37.0181136,
    "lon": 127.3844697,
    "holes": 27,
    "type": "회원제"
  },
  {
    "id": "gc-7h2bs4",
    "name": "안성컨트리클럽",
    "address": "경기 안성시 죽산면 장계길 134",
    "region": "경기",
    "lat": 37.0548022,
    "lon": 127.4053485,
    "holes": 18,
    "type": "회원제"
  },
  {
    "id": "gc-csm8lr",
    "name": "양주C.C",
    "address": "경기 남양주시 화도읍 북한강로 1525-52",
    "region": "경기",
    "lat": 37.6362023,
    "lon": 127.348021,
    "holes": 18,
    "type": "회원제"
  },
  {
    "id": "gc-irwd9g",
    "name": "올림픽 골프장",
    "address": "경기 고양시 덕양구 혜음로 301",
    "region": "경기",
    "lat": 37.7082289,
    "lon": 126.9020951,
    "holes": 9,
    "type": "대중제"
  },
  {
    "id": "gc-12gplpw",
    "name": "윈체스트 골프클럽 대중",
    "address": "경기 안성시 서운면 오촌길 97-31",
    "region": "경기",
    "lat": 36.958987,
    "lon": 127.2780074,
    "holes": 18,
    "type": "대중제"
  },
  {
    "id": "gc-o5yux0",
    "name": "은화삼CC",
    "address": "경기 용인시 처인구 백옥대로 860-38",
    "region": "경기",
    "lat": 37.2141709,
    "lon": 127.2131168,
    "holes": 18,
    "type": "회원제"
  },
  {
    "id": "gc-1aef0n3",
    "name": "이스트밸리컨트리클럽",
    "address": "경기 광주시 곤지암읍 건업리 4-43",
    "region": "경기",
    "lat": 37.4003936,
    "lon": 127.3954707,
    "holes": 27,
    "type": "회원제"
  },
  {
    "id": "gc-87lgqu",
    "name": "이천마이다스골프앤리조트",
    "address": "경기 이천시 설성면 설가로 602",
    "region": "경기",
    "lat": 37.1771762,
    "lon": 127.5248117,
    "holes": 27,
    "type": "대중제"
  },
  {
    "id": "gc-18ptn90",
    "name": "일산스프링힐스 컨트리클럽",
    "address": "경기 고양시 일산동구 산황로 108",
    "region": "경기",
    "lat": 37.6467525,
    "lon": 126.806893,
    "holes": 9,
    "type": "대중제"
  },
  {
    "id": "gc-1pj6q8s",
    "name": "중부컨트리클럽",
    "address": "경기 광주시 곤지암읍 경충대로 451",
    "region": "경기",
    "lat": 37.3202665,
    "lon": 127.3982542,
    "holes": 18,
    "type": "회원제"
  },
  {
    "id": "gc-1s8dns0",
    "name": "청평마이다스G.C",
    "address": "경기 가평군 설악면 다락재로 73-111",
    "region": "경기",
    "lat": 37.6648302,
    "lon": 127.4569705,
    "holes": 18,
    "type": "회원제"
  },
  {
    "id": "gc-1jkhd5a",
    "name": "캐슬파인",
    "address": "경기 여주시 강천면 부평로 580(강천면 부평리 산47-1)",
    "region": "경기",
    "lat": 37.3542841,
    "lon": 127.7603006,
    "holes": 18,
    "type": "대중제"
  },
  {
    "id": "gc-4vrvnr",
    "name": "코리아퍼브릭",
    "address": "경기 용인시 기흥구 기흥단지로 224",
    "region": "경기",
    "lat": 37.2264125,
    "lon": 127.1105641,
    "holes": 9,
    "type": "대중제"
  },
  {
    "id": "gc-1odwlq0",
    "name": "코리아CC",
    "address": "경기 용인시 처인구 이동읍 기흥단지로 579",
    "region": "경기",
    "lat": 37.2209353,
    "lon": 127.1507591,
    "holes": 27,
    "type": "회원제"
  },
  {
    "id": "gc-dtblyi",
    "name": "크리스탈밸리C.C",
    "address": "경기 가평군 상면 대보간선로 602-111",
    "region": "경기",
    "lat": 37.7918089,
    "lon": 127.3966664,
    "holes": 18,
    "type": "회원제"
  },
  {
    "id": "gc-1jsdwyp",
    "name": "태광CC",
    "address": "경기 용인시 기흥구 흥덕4로 77",
    "region": "경기",
    "lat": 37.2785711,
    "lon": 127.0890836,
    "holes": 27,
    "type": "회원제"
  },
  {
    "id": "gc-1mvwown",
    "name": "티클라우드 컨트리클럽",
    "address": "경기 동두천시 평화로 3202 (하봉암동)",
    "region": "경기",
    "lat": 37.9567542,
    "lon": 127.0622303,
    "holes": 18,
    "type": "회원제"
  },
  {
    "id": "gc-1eozhoq",
    "name": "파인크리크C.C",
    "address": "경기 안성시 양성면 안성맞춤대로 2417-13",
    "region": "경기",
    "lat": 37.1086298,
    "lon": 127.2468185,
    "holes": 27,
    "type": "대중제"
  },
  {
    "id": "gc-1k902rg",
    "name": "파주CC",
    "address": "경기 파주시 법원읍 화합로 306",
    "region": "경기",
    "lat": 37.8478934,
    "lon": 126.9081642,
    "holes": 18,
    "type": "대중제"
  },
  {
    "id": "gc-1scd6ok",
    "name": "한림광릉C.C",
    "address": "경기 남양주시 진접읍 팔야로 280",
    "region": "경기",
    "lat": 37.7454759,
    "lon": 127.2098007,
    "holes": 18,
    "type": "회원제"
  },
  {
    "id": "gc-1kk5odb",
    "name": "한림안성",
    "address": "경기 안성시 양성면 양성로 349-61",
    "region": "경기",
    "lat": 37.1079618,
    "lon": 127.2158271,
    "holes": 9,
    "type": "대중제"
  },
  {
    "id": "gc-a7o2dp",
    "name": "한림용인CC",
    "address": "경기 용인시 처인구 남사읍 경기동로 628",
    "region": "경기",
    "lat": 37.1255841,
    "lon": 127.1829099,
    "holes": 27,
    "type": "대중제"
  },
  {
    "id": "gc-1kkdi2p",
    "name": "한성CC",
    "address": "경기 용인시 기흥구 구교동로 151",
    "region": "경기",
    "lat": 37.305122,
    "lon": 127.1230399,
    "holes": 27,
    "type": "회원제"
  },
  {
    "id": "gc-1whqvtk",
    "name": "한양컨트리클럽",
    "address": "경기 고양시 덕양구 고양대로1643번길 164",
    "region": "경기",
    "lat": 37.6525147,
    "lon": 126.8577569,
    "holes": 36,
    "type": "회원제"
  },
  {
    "id": "gc-1tvqytr",
    "name": "한양컨트리클럽 대중제 9홀 골프장",
    "address": "경기 고양시 덕양구 고양대로 1591",
    "region": "경기",
    "lat": 37.6608617,
    "lon": 126.8256788,
    "holes": 9,
    "type": "대중제"
  },
  {
    "id": "gc-1kpliig",
    "name": "화산CC",
    "address": "경기 용인시 처인구 이동읍 화산로 239",
    "region": "경기",
    "lat": 37.1545126,
    "lon": 127.2338988,
    "holes": 18,
    "type": "회원제"
  },
  {
    "id": "gc-1qa19bk",
    "name": "화성골프클럽",
    "address": "경기 화성시 남양읍 화성로 1393-27",
    "region": "경기",
    "lat": 37.2096192,
    "lon": 126.8101537,
    "holes": 9,
    "type": "대중제"
  },
  {
    "id": "gc-173gias",
    "name": "J-PUBLIC",
    "address": "경기 파주시 조리읍 장곡로 100",
    "region": "경기",
    "lat": 37.7470854,
    "lon": 126.8455816,
    "holes": 6,
    "type": "대중제"
  },
  {
    "id": "gc-174h6kf",
    "name": "가야컨트리클럽",
    "address": "경남 김해시 인제로 495",
    "region": "경남",
    "lat": 35.2673295,
    "lon": 128.8946021,
    "holes": 45,
    "type": "회원제"
  },
  {
    "id": "gc-1v9mf1j",
    "name": "거제드비치골프클럽",
    "address": "경남 거제시 장목면 거제북로 1573",
    "region": "경남",
    "lat": 35.0119856,
    "lon": 128.6736928,
    "holes": 18,
    "type": "회원제"
  },
  {
    "id": "gc-1b5v9vj",
    "name": "거제뷰컨트리클럽",
    "address": "경남 거제시 거제면 옥산리 285-3",
    "region": "경남",
    "lat": 34.8682109,
    "lon": 128.583781,
    "holes": 18,
    "type": "대중제"
  },
  {
    "id": "gc-lxkug6",
    "name": "골프존카운티 사천",
    "address": "경남 사천시 서포면 구송로 151",
    "region": "경남",
    "lat": 35.0189057,
    "lon": 127.9506965,
    "holes": 27,
    "type": "대중제"
  },
  {
    "id": "gc-6yz0h8",
    "name": "동부산컨트리클럽",
    "address": "경남 양산시 매곡외산로 282",
    "region": "경남",
    "lat": 35.3646876,
    "lon": 129.180042,
    "holes": 27,
    "type": "회원제"
  },
  {
    "id": "gc-mj59qc",
    "name": "부곡컨트리클럽",
    "address": "경남 창녕군 부곡면 온천로 445",
    "region": "경남",
    "lat": 35.4258366,
    "lon": 128.6499231,
    "holes": 18,
    "type": "회원제"
  },
  {
    "id": "gc-1yrewuu",
    "name": "아라미르골프앤리조트",
    "address": "경남 창원시 진해구 수제로 36",
    "region": "경남",
    "lat": 35.0902489,
    "lon": 128.7366812,
    "holes": 36,
    "type": "대중제"
  },
  {
    "id": "gc-wcnc78",
    "name": "양산컨트리클럽",
    "address": "경남 양산시 상북면 충렬로 687",
    "region": "경남",
    "lat": 35.3931334,
    "lon": 129.0489889,
    "holes": 27,
    "type": "대중제"
  },
  {
    "id": "gc-zu3gh7",
    "name": "에덴밸리컨트리클럽",
    "address": "경남 양산시 원동면 어실로 910",
    "region": "경남",
    "lat": 35.4430951,
    "lon": 128.9835187,
    "holes": 18,
    "type": "회원제"
  },
  {
    "id": "gc-1q5o47r",
    "name": "에이원컨트리클럽",
    "address": "경남 양산시 덕명로 190",
    "region": "경남",
    "lat": 35.397531,
    "lon": 129.1624837,
    "holes": 27,
    "type": "회원제"
  },
  {
    "id": "gc-1uk764c",
    "name": "용원컨트리클럽",
    "address": "경남 창원시 진해구 가주로 133",
    "region": "경남",
    "lat": 35.1131422,
    "lon": 128.8357812,
    "holes": 27,
    "type": "회원제"
  },
  {
    "id": "gc-n8idzk",
    "name": "창원컨트리클럽",
    "address": "경남 창원시 의창구 대봉로 137",
    "region": "경남",
    "lat": 35.262813,
    "lon": 128.6612737,
    "holes": 18,
    "type": "회원제"
  },
  {
    "id": "gc-1q3a968",
    "name": "통도파인이스트컨트리클럽",
    "address": "경남 양산시 하북면 신평남부길 29-12",
    "region": "경남",
    "lat": 35.4842933,
    "lon": 129.0900432,
    "holes": 36,
    "type": "회원제"
  },
  {
    "id": "gc-i2xy5k",
    "name": "경주신라C.C",
    "address": "경북 경주시 보문로 319",
    "region": "경북",
    "lat": 35.8555344,
    "lon": 129.2846742,
    "holes": 36,
    "type": "회원제"
  },
  {
    "id": "gc-vie6h8",
    "name": "경주C.C",
    "address": "경북 경주시 보문로 182-98",
    "region": "경북",
    "lat": 35.8659473,
    "lon": 129.2632663,
    "holes": 27,
    "type": "대중제"
  },
  {
    "id": "gc-1dp5lyr",
    "name": "골프존카운티 감포",
    "address": "경북 경주시 감포읍 동해안로 1819-59",
    "region": "경북",
    "lat": 35.7710512,
    "lon": 129.491408,
    "holes": 18,
    "type": "대중제"
  },
  {
    "id": "gc-vkc9tz",
    "name": "구니C.C",
    "address": "경북 군위군 군위읍 도군로 2450",
    "region": "경북",
    "lat": 36.255658,
    "lon": 128.5500775,
    "holes": 18,
    "type": "대중제"
  },
  {
    "id": "gc-1j7tukv",
    "name": "군위오펠G.C",
    "address": "경북 군위군 산성면 부흥로 227",
    "region": "경북",
    "lat": 36.1200965,
    "lon": 128.6895702,
    "holes": 18,
    "type": "대중제"
  },
  {
    "id": "gc-1yblevd",
    "name": "뉴스프링빌Ⅱ",
    "address": "경북 상주시 모서면 백화로 40",
    "region": "경북",
    "lat": 36.3453406,
    "lon": 127.9322961,
    "holes": 18,
    "type": "대중제"
  },
  {
    "id": "gc-1ng72kh",
    "name": "대가야CC",
    "address": "경북 고령군 대가야읍 대가야로 1103",
    "region": "경북",
    "lat": 35.7375366,
    "lon": 128.2713127,
    "holes": 9,
    "type": "대중제"
  },
  {
    "id": "gc-1mr8ynz",
    "name": "대구C.C",
    "address": "경북 경산시 진량읍 일연로 718-42",
    "region": "경북",
    "lat": 35.8623892,
    "lon": 128.8044763,
    "holes": 27,
    "type": "회원제"
  },
  {
    "id": "gc-1b5glgn",
    "name": "마우나오션블루",
    "address": "경북 경주시 양남면 동남로 982",
    "region": "경북",
    "lat": 35.6782535,
    "lon": 129.3690683,
    "holes": 9,
    "type": "대중제"
  },
  {
    "id": "gc-1rgev27",
    "name": "마우나오션C.C",
    "address": "경북 경주시 양남면 동남로 982",
    "region": "경북",
    "lat": 35.6782535,
    "lon": 129.3690683,
    "holes": 18,
    "type": "회원제"
  },
  {
    "id": "gc-13srmpv",
    "name": "보문G.C",
    "address": "경북 경주시 보문로 182-14",
    "region": "경북",
    "lat": 35.8597932,
    "lon": 129.2737359,
    "holes": 18,
    "type": "대중제"
  },
  {
    "id": "gc-13bwlnf",
    "name": "선리치G.C",
    "address": "경북 경주시 안강읍 검단장골길 181-17",
    "region": "경북",
    "lat": 35.9411373,
    "lon": 129.2105256,
    "holes": 9,
    "type": "대중제"
  },
  {
    "id": "gc-1fakr",
    "name": "시엘G.C",
    "address": "경북 영천시 청통면 청통로 334-41",
    "region": "경북",
    "lat": 35.9916934,
    "lon": 128.8751719,
    "holes": 9,
    "type": "대중제"
  },
  {
    "id": "gc-k4ibi4",
    "name": "안강레전드G.C",
    "address": "경북 경주시 안강읍 낙산길 85",
    "region": "경북",
    "lat": 36.0018775,
    "lon": 129.1661035,
    "holes": 9,
    "type": "대중제"
  },
  {
    "id": "gc-3vjh2d",
    "name": "안동레이크골프클럽",
    "address": "경북 안동시 관광단지로 316",
    "region": "경북",
    "lat": 36.5663786,
    "lon": 128.7803223,
    "holes": 18,
    "type": "대중제"
  },
  {
    "id": "gc-ant1ec",
    "name": "안동리버힐C.C",
    "address": "경북 안동시 풍천면 풍일로 1572",
    "region": "경북",
    "lat": 36.5537573,
    "lon": 128.5077674,
    "holes": 18,
    "type": "회원제"
  },
  {
    "id": "gc-va18p9",
    "name": "오션힐스포항C.C(대)",
    "address": "경북 포항시 북구 송라면 대전길 7",
    "region": "경북",
    "lat": 36.2561183,
    "lon": 129.3474711,
    "holes": 9,
    "type": "대중제"
  },
  {
    "id": "gc-va7oex",
    "name": "오션힐스포항C.C(회)",
    "address": "경북 포항시 북구 송라면 대전길 7",
    "region": "경북",
    "lat": 36.2561183,
    "lon": 129.3474711,
    "holes": 18,
    "type": "회원제"
  },
  {
    "id": "gc-im07kr",
    "name": "오펠G.C",
    "address": "경북 영천시 고경면 호국로 1221-24",
    "region": "경북",
    "lat": 35.9878178,
    "lon": 129.1119857,
    "holes": 27,
    "type": "회원제"
  },
  {
    "id": "gc-hep7qr",
    "name": "우리G.C",
    "address": "경북 경주시 양남면 동남로 972",
    "region": "경북",
    "lat": 35.6782535,
    "lon": 129.3690683,
    "holes": 9,
    "type": "대중제"
  },
  {
    "id": "gc-66meyb",
    "name": "이스트힐C.C",
    "address": "경북 경주시 양남면 외남로 1377",
    "region": "경북",
    "lat": 35.6923669,
    "lon": 129.45071,
    "holes": 18,
    "type": "대중제"
  },
  {
    "id": "gc-1wny0bw",
    "name": "인터불고컨트리클럽",
    "address": "경북 경산시 삼성현로 614-26",
    "region": "경북",
    "lat": 35.8196921,
    "lon": 128.7188574,
    "holes": 27,
    "type": "회원제"
  },
  {
    "id": "gc-1fyi59u",
    "name": "청통골프장",
    "address": "경북 영천시 청통면 청통로 733",
    "region": "경북",
    "lat": 35.9916934,
    "lon": 128.8751719,
    "holes": 18,
    "type": "대중제"
  },
  {
    "id": "gc-c8tvc4",
    "name": "청하이스턴C.C",
    "address": "경북 포항시 청하면 용산길 94",
    "region": "경북",
    "lat": 36.1717575,
    "lon": 129.3782389,
    "holes": 9,
    "type": "대중제"
  },
  {
    "id": "gc-ez3tqg",
    "name": "펜타뷰골프클럽",
    "address": "경북 청도군 금천면 금천로 709",
    "region": "경북",
    "lat": 35.7399762,
    "lon": 128.8643828,
    "holes": 9,
    "type": "대중제"
  },
  {
    "id": "gc-bxdznn",
    "name": "포도C.C",
    "address": "경북 김천시 구성면 남김천대로 2532",
    "region": "경북",
    "lat": 36.0156164,
    "lon": 128.0332636,
    "holes": 27,
    "type": "대중제"
  },
  {
    "id": "gc-8og77z",
    "name": "냉천컨트리클럽",
    "address": "대구 대구광역시 달성군 가창면 가창로 1037-9",
    "region": "대구",
    "lat": 35.7480835,
    "lon": 128.65158,
    "holes": 9,
    "type": "대중제"
  },
  {
    "id": "gc-wfejzg",
    "name": "기장동원로얄컨트리클럽",
    "address": "부산 부산 기장군 기장읍 반송로 1345",
    "region": "부산",
    "lat": 35.2487175,
    "lon": 129.2095889,
    "holes": 9,
    "type": "대중제"
  },
  {
    "id": "gc-9u5win",
    "name": "동래베네스트골프클럽",
    "address": "부산 부산 금정구 선동 하정로 66",
    "region": "부산",
    "lat": 35.2648567,
    "lon": 129.1023495,
    "holes": 18,
    "type": "회원제"
  },
  {
    "id": "gc-zhb5g9",
    "name": "해운대비치골프앤리조트",
    "address": "부산 부산 기장군 기장읍 대변로 74",
    "region": "부산",
    "lat": 35.2319237,
    "lon": 129.2204586,
    "holes": 18,
    "type": "회원제"
  },
  {
    "id": "gc-1iwzaje",
    "name": "건설공제조합세종필드골프클럽",
    "address": "세종 세종시 정안세종로  1569",
    "region": "세종",
    "lat": 36.5349904,
    "lon": 127.2542426,
    "holes": 18,
    "type": "대중제"
  },
  {
    "id": "gc-n2c7mh",
    "name": "세종레이캐슬골프&리조트",
    "address": "세종 세종시 전의면 의당전의로 252",
    "region": "세종",
    "lat": 36.6282133,
    "lon": 127.1735458,
    "holes": 27,
    "type": "대중제"
  },
  {
    "id": "gc-176ca94",
    "name": "세종에머슨컨트리클럽",
    "address": "세종 세종시 전의면 운주산로 1510",
    "region": "세종",
    "lat": 36.6844575,
    "lon": 127.1734994,
    "holes": 27,
    "type": "회원제"
  },
  {
    "id": "gc-av84a",
    "name": "더골프골프장",
    "address": "울산 울주군 서생면 용연길 206-52",
    "region": "울산",
    "lat": 35.3560438,
    "lon": 129.3073144,
    "holes": 18,
    "type": "대중제"
  },
  {
    "id": "gc-1drk50q",
    "name": "보라골프장",
    "address": "울산 울주군 삼동면 삼동로 404",
    "region": "울산",
    "lat": 35.5175446,
    "lon": 129.1560327,
    "holes": 27,
    "type": "회원제"
  },
  {
    "id": "gc-t60t7m",
    "name": "울산골프장",
    "address": "울산 울주군 웅촌면 웅촌로 1",
    "region": "울산",
    "lat": 35.4677187,
    "lon": 129.2133053,
    "holes": 27,
    "type": "회원제"
  },
  {
    "id": "gc-1905fna",
    "name": "드림파크골프장",
    "address": "인천 인천시 서구 거월로 61",
    "region": "인천",
    "lat": 37.5825381,
    "lon": 126.6490797,
    "holes": 36,
    "type": "대중제"
  },
  {
    "id": "gc-1vebul7",
    "name": "석모도컨트리클럽",
    "address": "인천 인천시 강화군 어류정길 177",
    "region": "인천",
    "lat": 37.6652275,
    "lon": 126.3504207,
    "holes": 18,
    "type": "대중제"
  },
  {
    "id": "gc-1hso5g7",
    "name": "송도골프클럽",
    "address": "인천 인천시 연수구 능허대로 236",
    "region": "인천",
    "lat": 37.4270471,
    "lon": 126.6390929,
    "holes": 8,
    "type": "대중제"
  },
  {
    "id": "gc-171dkui",
    "name": "오렌지듄스골프클럽",
    "address": "인천 인천시 연수구 인천신항대로 1120",
    "region": "인천",
    "lat": 37.3668051,
    "lon": 126.6794576,
    "holes": 18,
    "type": "대중제"
  },
  {
    "id": "gc-6lor3j",
    "name": "인천국제컨트리클럽",
    "address": "인천 인천시 서구 도요지로 37",
    "region": "인천",
    "lat": 37.5580927,
    "lon": 126.6642814,
    "holes": 18,
    "type": "회원제"
  },
  {
    "id": "gc-hare5y",
    "name": "인천그랜드컨트리클럽",
    "address": "인천 인천시 서구 원석로 195",
    "region": "인천",
    "lat": 37.513691,
    "lon": 126.6411469,
    "holes": 18,
    "type": "대중제"
  },
  {
    "id": "gc-4vpjf3",
    "name": "잭 니클라우스 골프클럽 코리아",
    "address": "인천 인천시 연수구 아카데미로 209",
    "region": "인천",
    "lat": 37.3798444,
    "lon": 126.6242378,
    "holes": 18,
    "type": "회원제"
  },
  {
    "id": "gc-5fvy1f",
    "name": "SKY72 골프클럽(바다코스)",
    "address": "인천 인천시 중구 공항동로 392",
    "region": "인천",
    "lat": 37.4949726,
    "lon": 126.4511912,
    "holes": 63,
    "type": "대중제"
  },
  {
    "id": "gc-1p7zkwb",
    "name": "SKY72 골프클럽(하늘코스)",
    "address": "인천 인천시 중구 공항동로135번길 267",
    "region": "인천",
    "lat": 37.4520153,
    "lon": 126.4725498,
    "holes": 18,
    "type": "대중제"
  },
  {
    "id": "gc-eyalrp",
    "name": "광양CC",
    "address": "전남 광양시 가야로 223",
    "region": "전남",
    "lat": 34.9641081,
    "lon": 127.7134342,
    "holes": 6,
    "type": "대중제"
  },
  {
    "id": "gc-1wd2fap",
    "name": "백양우리CC",
    "address": "전남 장성군 북이면 봉암로 1574",
    "region": "전남",
    "lat": 35.4242008,
    "lon": 126.8059327,
    "holes": 9,
    "type": "대중제"
  },
  {
    "id": "gc-1qc3iyy",
    "name": "세이지우드여수경도",
    "address": "전남 여수시 대경도길 33",
    "region": "전남",
    "lat": 34.719109,
    "lon": 127.7219809,
    "holes": 27,
    "type": "대중제"
  },
  {
    "id": "gc-hgy2ss",
    "name": "순천부영CC",
    "address": "전남 순천시 해룡면 신대로 188",
    "region": "전남",
    "lat": 34.9358269,
    "lon": 127.5496142,
    "holes": 18,
    "type": "대중제"
  },
  {
    "id": "gc-14o26hf",
    "name": "여수시티파크골프&호텔",
    "address": "전남 여수시 좌수영로 641",
    "region": "전남",
    "lat": 34.7658391,
    "lon": 127.7032314,
    "holes": 18,
    "type": "대중제"
  },
  {
    "id": "gc-j9wgfp",
    "name": "죽향CC",
    "address": "전남 담양군 창평면 창평로 159",
    "region": "전남",
    "lat": 35.2356273,
    "lon": 127.0163773,
    "holes": 9,
    "type": "대중제"
  },
  {
    "id": "gc-jre74p",
    "name": "창평CC",
    "address": "전남 담양군 창평면 오산길 100",
    "region": "전남",
    "lat": 35.2228857,
    "lon": 127.0148629,
    "holes": 9,
    "type": "대중제"
  },
  {
    "id": "gc-vs8s17",
    "name": "파인힐스CC",
    "address": "전남 순천시 주암면 송광사길 99",
    "region": "전남",
    "lat": 35.0622514,
    "lon": 127.2679599,
    "holes": 27,
    "type": "대중제"
  },
  {
    "id": "gc-1kqayps",
    "name": "함평천지CC",
    "address": "전남 함평군 함평읍 함장로 889-11",
    "region": "전남",
    "lat": 35.0582811,
    "lon": 126.5328629,
    "holes": 9,
    "type": "대중제"
  },
  {
    "id": "gc-1vt7h3j",
    "name": "해피니스CC",
    "address": "전남 나주시 다도면 다도로 171-60",
    "region": "전남",
    "lat": 34.9168219,
    "lon": 126.8306453,
    "holes": 18,
    "type": "대중제"
  },
  {
    "id": "gc-1qrhg33",
    "name": "JNJ골프리조트",
    "address": "전남 장흥군 장평면 제산기동로 326",
    "region": "전남",
    "lat": 34.7975181,
    "lon": 126.9441857,
    "holes": 27,
    "type": "대중제"
  },
  {
    "id": "gc-crc9jd",
    "name": "고창CC",
    "address": "전북 전라북도 고창군 심원면 애향갯벌로 70",
    "region": "전북",
    "lat": 35.5226781,
    "lon": 126.5452936,
    "holes": 21,
    "type": "대중제"
  },
  {
    "id": "gc-g9pljq",
    "name": "골프존 카운티 드래곤",
    "address": "전북 전라북도 남원시 대산면 대사로 498",
    "region": "전북",
    "lat": 35.4267632,
    "lon": 127.3246948,
    "holes": 18,
    "type": "대중제"
  },
  {
    "id": "gc-47iqem",
    "name": "골프존카운티무주",
    "address": "전북 전라북도 무주군 안성면 장무로 1537-21",
    "region": "전북",
    "lat": 35.8187555,
    "lon": 127.6351191,
    "holes": 18,
    "type": "대중제"
  },
  {
    "id": "gc-47jsk2",
    "name": "골프존카운티선운",
    "address": "전북 전라북도 고창군 아산면 운곡로 418",
    "region": "전북",
    "lat": 35.4672104,
    "lon": 126.633972,
    "holes": 18,
    "type": "대중제"
  },
  {
    "id": "gc-1vs8qcb",
    "name": "금과골프장",
    "address": "전북 전라북도 순창군 금과면 담순로 716",
    "region": "전북",
    "lat": 35.3522696,
    "lon": 127.0751124,
    "holes": 6,
    "type": "대중제"
  },
  {
    "id": "gc-1nntcj0",
    "name": "김제스파힐스CC",
    "address": "전북 전라북도 김제시 온천길 37",
    "region": "전북",
    "lat": 35.8284447,
    "lon": 126.9207961,
    "holes": 18,
    "type": "대중제"
  },
  {
    "id": "gc-1hbeu6t",
    "name": "내장산골프&리조트",
    "address": "전북 전라북도 정읍시 첨단과학로 476",
    "region": "전북",
    "lat": 35.5063298,
    "lon": 126.8307092,
    "holes": 18,
    "type": "대중제"
  },
  {
    "id": "gc-1s907ep",
    "name": "무주덕유산CC",
    "address": "전북 전라북도 무주군 설천면 만선로 185",
    "region": "전북",
    "lat": 35.8936536,
    "lon": 127.742056,
    "holes": 18,
    "type": "회원제"
  },
  {
    "id": "gc-l83nw9",
    "name": "상떼힐CC",
    "address": "전북 전라북도 익산시 무왕로38길 111",
    "region": "전북",
    "lat": 35.9564012,
    "lon": 127.0268699,
    "holes": 6,
    "type": "대중제"
  },
  {
    "id": "gc-1gwejqs",
    "name": "웅포컨트리클럽",
    "address": "전북 전라북도 익산시 웅포면 강변로 130",
    "region": "전북",
    "lat": 36.0815006,
    "lon": 126.882815,
    "holes": 18,
    "type": "대중제"
  },
  {
    "id": "gc-1ksvr6w",
    "name": "익산컨트리클럽",
    "address": "전북 전라북도 익산시 무왕로38길 111",
    "region": "전북",
    "lat": 35.9564012,
    "lon": 127.0268699,
    "holes": 18,
    "type": "대중제"
  },
  {
    "id": "gc-85m2v7",
    "name": "장수골프리조트",
    "address": "전북 전라북도 장수군 계남면 장안산로 303",
    "region": "전북",
    "lat": 35.6842632,
    "lon": 127.5868366,
    "holes": 18,
    "type": "대중제"
  },
  {
    "id": "gc-8r1uak",
    "name": "전주월드컵골프장",
    "address": "전북 전라북도 전주시 덕진구 온고을로 672",
    "region": "전북",
    "lat": 35.843543,
    "lon": 127.0939041,
    "holes": 9,
    "type": "대중제"
  },
  {
    "id": "gc-c6lzal",
    "name": "CLUBD 금강",
    "address": "전북 전라북도 익산시 웅포면 강변로 130",
    "region": "전북",
    "lat": 36.0815006,
    "lon": 126.882815,
    "holes": 18,
    "type": "대중제"
  },
  {
    "id": "gc-8dvcrg",
    "name": "㈜부영CC",
    "address": "제주 서귀포시 남원읍 남조로 960",
    "region": "제주",
    "lat": 33.3057247,
    "lon": 126.7189018,
    "holes": 27,
    "type": "대중제"
  },
  {
    "id": "gc-19yd6ld",
    "name": "㈜우리들리조트 제주",
    "address": "제주 제주특별자치도 서귀포시 산록남로 2914",
    "region": "제주",
    "lat": 33.3104314,
    "lon": 126.5890399,
    "holes": 18,
    "type": "대중제"
  },
  {
    "id": "gc-sp5rq2",
    "name": "㈜호텔롯데스카이힐제주CC",
    "address": "제주 서귀포시 상예로 530",
    "region": "제주",
    "lat": 33.2871927,
    "lon": 126.4056433,
    "holes": 18,
    "type": "회원제"
  },
  {
    "id": "gc-19f6jks",
    "name": "더클래식CC",
    "address": "제주 서귀포시 남조로 1105",
    "region": "제주",
    "lat": 33.3706099,
    "lon": 126.6800237,
    "holes": 18,
    "type": "대중제"
  },
  {
    "id": "gc-15kxupm",
    "name": "라온골프클럽",
    "address": "제주 제주도 제주시 한경면 용금로 998",
    "region": "제주",
    "lat": 33.3355555,
    "lon": 126.1966493,
    "holes": 27,
    "type": "대중제"
  },
  {
    "id": "gc-2kz87h",
    "name": "라헨느",
    "address": "제주 제주시 명림로 375",
    "region": "제주",
    "lat": 33.4854648,
    "lon": 126.6041071,
    "holes": 18,
    "type": "회원제"
  },
  {
    "id": "gc-fhbgp9",
    "name": "사이프러스",
    "address": "제주 서귀포시 표선면 번영로 2300",
    "region": "제주",
    "lat": 33.412208,
    "lon": 126.7522458,
    "holes": 18,
    "type": "회원제"
  },
  {
    "id": "gc-6ubixn",
    "name": "샤인빌파크C.C.",
    "address": "제주 서귀포시 표선면 가시로 384",
    "region": "제주",
    "lat": 33.345351,
    "lon": 126.7883329,
    "holes": 18,
    "type": "대중제"
  },
  {
    "id": "gc-x2jroz",
    "name": "세인트포CC",
    "address": "제주 제주시 구좌읍 선유로 445-55",
    "region": "제주",
    "lat": 33.5397663,
    "lon": 126.7271744,
    "holes": 9,
    "type": "회원제"
  },
  {
    "id": "gc-rawzam",
    "name": "스프링데일",
    "address": "제주 서귀포시 서성로 459",
    "region": "제주",
    "lat": 33.3233636,
    "lon": 126.6516064,
    "holes": 18,
    "type": "대중제"
  },
  {
    "id": "gc-2n3jfl",
    "name": "아덴힐",
    "address": "제주 제주시 화전길 82",
    "region": "제주",
    "lat": 33.3447063,
    "lon": 126.3910185,
    "holes": 18,
    "type": "대중제"
  },
  {
    "id": "gc-o2qfb1",
    "name": "에버리스골프리조트",
    "address": "제주 제주시 애월읍 평화로 1693-75",
    "region": "제주",
    "lat": 33.4076166,
    "lon": 126.3960464,
    "holes": 18,
    "type": "회원제"
  },
  {
    "id": "gc-gcmd1x",
    "name": "에코랜드",
    "address": "제주 제주시 번영로 1278-169",
    "region": "제주",
    "lat": 33.4223933,
    "lon": 126.743742,
    "holes": 27,
    "type": "대중제"
  },
  {
    "id": "gc-jdq7tr",
    "name": "엘리시안 제주cc",
    "address": "제주 제주시 애월읍 평화로 1738-116",
    "region": "제주",
    "lat": 33.4478775,
    "lon": 126.4345957,
    "holes": 18,
    "type": "회원제"
  },
  {
    "id": "gc-1h1ixt3",
    "name": "제주힐CC",
    "address": "제주 제주시 516로 2696-117",
    "region": "제주",
    "lat": 33.4411014,
    "lon": 126.5701741,
    "holes": 9,
    "type": "대중제"
  },
  {
    "id": "gc-lel8xw",
    "name": "캐슬렉스제주GC",
    "address": "제주 서귀포시 평화로 1241",
    "region": "제주",
    "lat": 33.3402516,
    "lon": 126.3487746,
    "holes": 18,
    "type": "회원제"
  },
  {
    "id": "gc-l09riz",
    "name": "크라운CC",
    "address": "제주 제주시 북선로 125",
    "region": "제주",
    "lat": 33.5128859,
    "lon": 126.6967268,
    "holes": 27,
    "type": "대중제"
  },
  {
    "id": "gc-1ops7u3",
    "name": "타미우스CC",
    "address": "제주 제주시 화전길 201",
    "region": "제주",
    "lat": 33.3447063,
    "lon": 126.3910185,
    "holes": 27,
    "type": "회원제"
  },
  {
    "id": "gc-15abu75",
    "name": "테디밸리골프앤리조트",
    "address": "제주 제주 서귀포시 안덕면 한창로 365",
    "region": "제주",
    "lat": 33.2937094,
    "lon": 126.3486877,
    "holes": 18,
    "type": "회원제"
  },
  {
    "id": "gc-z5x9y0",
    "name": "sk핀크스골프장",
    "address": "제주 서귀포시 안덕면 산록남로 863",
    "region": "제주",
    "lat": 33.3054073,
    "lon": 126.3936783,
    "holes": 18,
    "type": "회원제"
  },
  {
    "id": "gc-1u64xpv",
    "name": "더힐 컨트리클럽",
    "address": "충남 논산시 상월면 선비로 1079",
    "region": "충남",
    "lat": 36.3016878,
    "lon": 127.166236,
    "holes": 9,
    "type": "대중제"
  },
  {
    "id": "gc-mlt5ns",
    "name": "로얄링스1",
    "address": "충남 태안군 태안읍 반곡길 284",
    "region": "충남",
    "lat": 36.7440129,
    "lon": 126.3129551,
    "holes": 18,
    "type": "대중제"
  },
  {
    "id": "gc-mlt5nt",
    "name": "로얄링스2",
    "address": "충남 태안군 태안읍 반곡길 284",
    "region": "충남",
    "lat": 36.7440129,
    "lon": 126.3129551,
    "holes": 18,
    "type": "대중제"
  },
  {
    "id": "gc-t7x3tp",
    "name": "보령베이스CC",
    "address": "충남 보령시 옥마벚길 10",
    "region": "충남",
    "lat": 36.3342379,
    "lon": 126.6283366,
    "holes": 9,
    "type": "대중제"
  },
  {
    "id": "gc-m0f6zp",
    "name": "천안상록골프장",
    "address": "충남 천안시 동남구 수신면 수신로 576",
    "region": "충남",
    "lat": 36.7411539,
    "lon": 127.2869077,
    "holes": 27,
    "type": "대중제"
  },
  {
    "id": "gc-1modg3s",
    "name": "골프존카운티화랑",
    "address": "충북 진천군 문백면 농다리로 809",
    "region": "충북",
    "lat": 36.7826115,
    "lon": 127.4564775,
    "holes": 18,
    "type": "대중제"
  },
  {
    "id": "gc-1tf3aec",
    "name": "대영베이스",
    "address": "충북 충주시 대소원면 성종두담길 113",
    "region": "충북",
    "lat": 36.9620605,
    "lon": 127.8433766,
    "holes": 18,
    "type": "대중제"
  },
  {
    "id": "gc-1dc8pnk",
    "name": "대영힐스",
    "address": "충북 충주시 대소원면 성종두담길 114",
    "region": "충북",
    "lat": 36.9584208,
    "lon": 127.8450913,
    "holes": 27,
    "type": "대중제"
  },
  {
    "id": "gc-1x900j4",
    "name": "동촌",
    "address": "충북 충주시 노은면 감노로 1327",
    "region": "충북",
    "lat": 37.0465294,
    "lon": 127.7555836,
    "holes": 18,
    "type": "대중제"
  },
  {
    "id": "gc-c9q58j",
    "name": "떼제베",
    "address": "충북 청주시 흥덕구 옥산면 동림2길 149",
    "region": "충북",
    "lat": 36.6660002,
    "lon": 127.3203397,
    "holes": 36,
    "type": "대중제"
  },
  {
    "id": "gc-gkiwhv",
    "name": "레인보우힐스",
    "address": "충북 음성군 생극면 차생로 168",
    "region": "충북",
    "lat": 37.0255069,
    "lon": 127.6291364,
    "holes": 27,
    "type": "대중제"
  },
  {
    "id": "gc-yqr8mq",
    "name": "세레니티cc(구, 실크리버)",
    "address": "충북 청주시 서원구 남이면 문곡구절골길 235",
    "region": "충북",
    "lat": 36.5459823,
    "lon": 127.3921154,
    "holes": 18,
    "type": "회원제"
  },
  {
    "id": "gc-13864z3",
    "name": "아난티 중앙골프클럽(구,디에머슨)",
    "address": "충북 진천군 백곡면 배티로 818-105",
    "region": "충북",
    "lat": 36.9126908,
    "lon": 127.3355464,
    "holes": 27,
    "type": "회원제"
  },
  {
    "id": "gc-1gjdntb",
    "name": "젠스필드",
    "address": "충북 음성군 삼성면 덕호로 382",
    "region": "충북",
    "lat": 37.026949,
    "lon": 127.499486,
    "holes": 18,
    "type": "대중제"
  },
  {
    "id": "gc-1x93tm4",
    "name": "중원",
    "address": "충북 충주시 산척면 인등로 392",
    "region": "충북",
    "lat": 37.0751379,
    "lon": 128.0010137,
    "holes": 27,
    "type": "대중제"
  },
  {
    "id": "gc-1gsq544",
    "name": "진양밸리",
    "address": "충북 음성군 삼성면 금일로 1195",
    "region": "충북",
    "lat": 37.0150745,
    "lon": 127.4964619,
    "holes": 27,
    "type": "대중제"
  },
  {
    "id": "gc-ce7myx",
    "name": "킹즈락",
    "address": "충북 제천시 천남동 내토로7길 136",
    "region": "충북",
    "lat": 37.133731,
    "lon": 128.1798723,
    "holes": 27,
    "type": "대중제"
  }
]
